City_ID,City,Country,Date,Lat,Lng,Max Temp,Humidity,Cloudiness,Wind Speed
0,Rikitea,PF,4/27/22 17:18,-23.1203,-134.9692,77.67,72,51,24
1,Amapa,BR,4/27/22 17:19,1,-52,84.42,70,99,3.78
2,Kavieng,PG,4/27/22 17:19,-2.5744,150.7967,82.96,78,36,15.12
3,Beyneu,KZ,4/27/22 17:19,45.3167,55.2,70.56,33,94,15.79
4,Georgetown,MY,4/27/22 17:15,5.4112,100.3354,85.95,84,20,0
5,Brae,GB,4/27/22 17:19,60.3964,-1.353,45.1,65,52,9.42
6,Castro,BR,4/27/22 17:19,-24.7911,-50.0119,78.71,50,3,8.86
7,Vaini,TO,4/27/22 17:19,-21.2,-175.2,75.36,69,40,11.5
8,Albany,US,4/27/22 17:19,42.6001,-73.9662,49.78,47,62,4
9,Mareeba,AU,4/27/22 17:19,-17,145.4333,72.32,91,24,2.51
10,Yellowknife,CA,4/27/22 17:19,62.456,-114.3525,45.12,49,20,6.91
11,Faya,SA,4/27/22 17:19,18.3851,42.4509,66.31,54,22,7.85
12,Busselton,AU,4/27/22 17:19,-33.65,115.3333,61.27,67,91,12.15
13,Ostrovnoy,RU,4/27/22 17:19,68.0531,39.5131,19.62,77,40,16.22
14,Belmonte,BR,4/27/22 17:19,-15.8631,-38.8828,82.35,67,87,8.61
15,Egvekinot,RU,4/27/22 17:19,66.3167,-179.1667,17.38,85,99,5.82
16,East London,ZA,4/27/22 17:19,-33.0153,27.9116,63.54,82,0,8.05
17,Buenos Aires,AR,4/27/22 17:15,-34.6132,-58.3772,68.94,32,0,4.61
18,Wajima,JP,4/27/22 17:19,37.4,136.9,48.49,68,47,8.7
19,Hobart,AU,4/27/22 17:19,-42.8794,147.3294,57.27,94,100,3.44
20,Iqaluit,CA,4/27/22 17:19,63.7506,-68.5145,13.73,72,75,18.41
21,Hilo,US,4/27/22 17:18,19.7297,-155.09,76.28,96,100,5.75
22,Avarua,CK,4/27/22 17:17,-21.2078,-159.775,73.45,100,75,1.14
23,Vrangel,RU,4/27/22 17:19,42.7297,133.0839,43.75,60,47,5.55
24,Jamestown,US,4/27/22 17:18,42.097,-79.2353,33.39,76,100,14.97
25,Souillac,MU,4/27/22 17:19,-20.5167,57.5167,73.78,94,20,4.61
26,Hermanus,ZA,4/27/22 17:19,-34.4187,19.2345,61.81,68,16,2.93
27,Berlevag,NO,4/27/22 17:19,70.8578,29.0864,26.6,93,100,35.68
28,Santa Isabel Do Rio Negro,BR,4/27/22 17:19,-0.4139,-65.0192,93.45,47,66,2.13
29,Ushuaia,AR,4/27/22 17:19,-54.8,-68.3,35.26,87,75,11.5
30,Evensk,RU,4/27/22 17:19,61.95,159.2333,30.88,88,95,11.99
31,Ormara,PK,4/27/22 17:19,25.2088,64.6357,83.17,80,99,12.95
32,Jacareacanga,BR,4/27/22 17:19,-6.2222,-57.7528,92.8,44,81,4.16
33,Beloha,MG,4/27/22 17:19,-25.1667,45.05,69.4,65,99,10.54
34,Cockburn Town,TC,4/27/22 17:19,21.4612,-71.1419,74.89,63,48,13.31
35,Mount Isa,AU,4/27/22 17:19,-20.7333,139.5,69.57,83,7,5.75
36,Green River,US,4/27/22 17:17,41.5286,-109.4662,59.4,36,100,5.7
37,Tuktoyaktuk,CA,4/27/22 17:19,69.4541,-133.0374,6.8,85,100,5.75
38,Gamba,GA,4/27/22 17:19,-2.65,10,77.32,83,99,3.62
39,Barrow,US,4/27/22 17:17,71.2906,-156.7887,5.02,85,100,12.66
40,Woodland,US,4/27/22 17:19,38.6785,-121.7733,64.54,61,0,5.75
41,Bambous Virieux,MU,4/27/22 17:19,-20.3428,57.7575,74.21,94,20,4.61
42,Marawi,PH,4/27/22 17:20,7.9986,124.2928,70.68,91,99,1.61
43,Saskylakh,RU,4/27/22 17:20,71.9167,114.0833,1.85,100,88,2.64
44,Cherskiy,RU,4/27/22 17:20,68.75,161.3,15.37,92,100,2.64
45,Carnarvon,AU,4/27/22 17:20,-24.8667,113.6333,64.47,77,59,8.05
46,Atuona,PF,4/27/22 17:20,-9.8,-139.0333,78.67,77,43,22.21
47,Mahebourg,MU,4/27/22 17:20,-20.4081,57.7,74.25,94,20,4.61
48,Petropavlovsk-Kamchatskiy,RU,4/27/22 17:20,53.0452,158.6483,32.59,100,100,17.9
49,Yar-Sale,RU,4/27/22 17:20,66.8333,70.8333,17.47,88,15,7.34
50,Caravelas,BR,4/27/22 17:20,-17.7125,-39.2481,81.9,68,19,7.92
51,Katsuura,JP,4/27/22 17:20,35.1333,140.3,61.21,79,100,27.49
52,Longyearbyen,SJ,4/27/22 17:20,78.2186,15.6401,4.84,61,75,11.5
53,Hasaki,JP,4/27/22 17:20,35.7333,140.8333,61.2,68,100,27.92
54,Pochutla,MX,4/27/22 17:20,15.7432,-96.4661,91.81,44,6,8.32
55,Buala,SB,4/27/22 17:20,-8.145,159.5921,80.26,81,24,4.38
56,Camana,PE,4/27/22 17:20,-16.6228,-72.7111,70.11,78,90,10.04
57,Eyemouth,GB,4/27/22 17:20,55.8713,-2.0901,51.24,65,24,6.29
58,Puerto Ayora,EC,4/27/22 17:20,-0.7393,-90.3518,78.76,78,17,7.7
59,Bilibino,RU,4/27/22 17:20,68.0546,166.4372,10.62,97,100,4.68
60,Camacha,PT,4/27/22 17:20,33.0833,-16.3333,63.82,59,20,11.5
61,Ponta Do Sol,PT,4/27/22 17:20,32.6667,-17.1,67.12,73,19,2.62
62,Punta Arenas,CL,4/27/22 17:17,-53.15,-70.9167,42.91,49,20,21.85
63,Cayenne,GF,4/27/22 17:20,4.9333,-52.3333,85.08,1,75,11.5
64,San Juan,AR,4/27/22 17:20,-31.5375,-68.5364,66.97,23,0,7.2
65,Vila Franca Do Campo,PT,4/27/22 17:20,37.7167,-25.4333,64.81,88,80,16.06
66,Vanavara,RU,4/27/22 17:20,60.34,102.2797,25.5,93,9,1.05
67,Olkhovka,RU,4/27/22 17:20,53.2115,60.6069,59.92,56,100,9.51
68,Fairbanks,US,4/27/22 17:18,64.8378,-147.7164,42.76,64,0,3.44
69,Sioux Lookout,CA,4/27/22 17:20,50.1001,-91.917,33.87,40,20,4.61
70,Belyy Yar,RU,4/27/22 17:20,53.6039,91.3903,35.49,55,80,2.24
71,Port Moresby,PG,4/27/22 17:20,-9.4431,147.1797,76.75,88,65,3
72,Anzio,IT,4/27/22 17:20,41.4853,12.6179,70.99,71,7,9.91
73,Arraial Do Cabo,BR,4/27/22 17:20,-22.9661,-42.0278,87.76,65,0,18.41
74,Khatanga,RU,4/27/22 17:20,71.9667,102.5,9.25,85,48,9.22
75,Kapaa,US,4/27/22 17:20,22.0752,-159.319,71.92,97,20,10.36
76,Nizhniy Kuranakh,RU,4/27/22 17:20,58.8353,125.4869,27.3,96,100,5.19
77,Ust-Tsilma,RU,4/27/22 17:20,65.441,52.1498,25.14,88,100,4.03
78,Lagoa,PT,4/27/22 17:20,39.05,-27.9833,62.13,92,93,28.97
79,Isangel,VU,4/27/22 17:20,-19.55,169.2667,76.89,69,99,14.25
80,Russkaya Polyana,UA,4/27/22 17:20,49.417,31.9201,54.09,60,97,5.14
81,Saint-Pierre,RE,4/27/22 17:20,-21.3393,55.4781,73.9,82,0,3.44
82,Kudahuvadhoo,MV,4/27/22 17:20,2.6708,72.8944,84.47,71,77,4.79
83,Tiksi,RU,4/27/22 17:20,71.6872,128.8694,-4.7,100,92,3.96
84,Caracollo,PE,4/27/22 17:20,-14.9165,-70.6603,59.95,24,65,5.88
85,Bluff,NZ,4/27/22 17:21,-46.6,168.3333,49.68,84,63,5.95
86,Mataura,NZ,4/27/22 17:21,-46.1927,168.8643,41.09,98,8,2.26
87,Gravelbourg,CA,4/27/22 17:21,49.8834,-106.5512,50.27,41,71,17.67
88,Samfya,ZM,4/27/22 17:21,-11.3649,29.5565,67.42,79,66,8.21
89,Lompoc,US,4/27/22 17:21,34.6391,-120.4579,66.56,70,20,15.01
90,Kaitangata,NZ,4/27/22 17:21,-46.2817,169.8464,43.56,94,14,5.59
91,New Norfolk,AU,4/27/22 17:21,-42.7826,147.0587,56.91,87,100,1.9
92,Lasa,IT,4/27/22 17:16,46.6166,10.7002,59.36,64,15,3.13
93,Paris,FR,4/27/22 17:18,48.8534,2.3488,66.52,46,0,14.97
94,Sao Jose Da Coroa Grande,BR,4/27/22 17:21,-8.8978,-35.1478,82.33,76,47,10.27
95,Walvis Bay,NA,4/27/22 17:21,-22.9575,14.5053,76.15,46,0,6.91
96,Klaksvik,FO,4/27/22 17:21,62.2266,-6.589,47.32,73,99,11.68
97,Daura,NG,4/27/22 17:21,11.5538,11.4085,96.4,13,86,7
98,Port Lincoln,AU,4/27/22 17:21,-34.7333,135.8667,68.23,59,100,13.8
99,Strezhevoy,RU,4/27/22 17:21,60.7333,77.5889,43.43,95,99,8.55
100,Riverton,US,4/27/22 17:17,40.5219,-111.9391,69.3,29,40,11.01
101,Alexandria,EG,4/27/22 17:21,31.2156,29.9553,68.27,61,0,9.75
102,Te Anau,NZ,4/27/22 17:21,-45.4167,167.7167,42.85,95,19,1.25
103,Cookeville,US,4/27/22 17:21,36.1628,-85.5016,65.57,37,0,8.05
104,Kupang,ID,4/27/22 17:21,-10.1667,123.5833,75.36,84,33,4.92
105,Oranjestad,AW,4/27/22 17:21,12.524,-70.027,84.15,58,75,19.57
106,Matara,LK,4/27/22 17:21,5.9485,80.5353,81.12,83,19,2.55
107,Pandrup,DK,4/27/22 17:21,57.2215,9.6757,55.31,50,75,2.3
108,Male,MV,4/27/22 17:21,4.1748,73.5089,84.11,71,37,4.16
109,Chokurdakh,RU,4/27/22 17:21,70.6333,147.9167,12.13,96,100,7.78
110,Xambioa,BR,4/27/22 17:21,-6.4111,-48.5364,87.17,58,82,6.08
111,Thinadhoo,MV,4/27/22 17:21,0.5333,72.9333,83.77,74,100,4.27
112,Springbok,ZA,4/27/22 17:21,-29.6643,17.8865,69.01,22,0,9.46
113,Wasilla,US,4/27/22 17:17,61.5814,-149.4394,47.35,57,0,3.44
114,Bethel,US,4/27/22 17:21,41.3712,-73.414,55.2,55,100,9.22
115,Pevek,RU,4/27/22 17:21,69.7008,170.3133,27.39,78,100,13.94
116,Deputatskiy,RU,4/27/22 17:21,69.3,139.9,2.08,99,100,1.48
117,Hovd,MN,4/27/22 17:21,48.0056,91.6419,36,77,89,3.8
118,Salta,AR,4/27/22 17:20,-24.7859,-65.4117,80.58,52,0,5.75
119,Saint Anthony,US,4/27/22 17:21,45.0205,-93.218,43.72,43,0,14.97
120,Yaan,NG,4/27/22 17:21,7.3833,8.5667,83.12,60,89,10.65
121,Pascagoula,US,4/27/22 17:22,30.3658,-88.5561,76.41,39,0,6.91
122,Upernavik,GL,4/27/22 17:22,72.7868,-56.1549,34.84,74,100,6.69
123,Garowe,SO,4/27/22 17:22,8.4054,48.4845,83.46,55,100,19.93
124,Kapoeta,SS,4/27/22 17:22,4.7717,33.5903,80.85,56,90,9.17
125,Saint George,US,4/27/22 17:17,37.1041,-113.5841,78.8,11,0,3
126,Espana,PH,4/27/22 17:22,12.3841,122.499,82.65,79,98,12.77
127,Baragua,CU,4/27/22 17:22,21.6967,-78.6328,88.99,33,2,12.41
128,Salekhard,RU,4/27/22 17:22,66.53,66.6019,18.91,83,1,8.52
129,Sao Filipe,CV,4/27/22 17:22,14.8961,-24.4956,74.57,65,17,14.2
130,Bredasdorp,ZA,4/27/22 17:22,-34.5322,20.0403,58.08,84,6,4.47
131,Namibe,AO,4/27/22 17:22,-15.1961,12.1522,74.03,78,75,11.5
132,Misratah,LY,4/27/22 17:17,32.3754,15.0925,67.35,65,48,21.72
133,Caorle,IT,4/27/22 17:23,45.5966,12.8758,66.34,60,0,5.06
134,Esperance,AU,4/27/22 17:23,-33.8667,121.9,58.84,82,71,11.65
135,Zhigansk,RU,4/27/22 17:23,66.7697,123.3711,5.88,98,20,9.1
136,Grajewo,PL,4/27/22 17:23,53.6473,22.4554,45.9,62,78,8.37
137,Cape Town,ZA,4/27/22 17:22,-33.9258,18.4232,65.26,63,0,5.99
138,Chuy,UY,4/27/22 17:23,-33.6971,-53.4616,63.79,91,100,4.07
139,Severo-Kurilsk,RU,4/27/22 17:23,50.6789,156.125,34.5,94,81,7.72
140,Premia De Mar,ES,4/27/22 17:23,41.4921,2.3652,70.61,63,100,1.99
141,Nanortalik,GL,4/27/22 17:23,60.1432,-45.2371,41.41,74,100,11.56
142,Dhidhdhoo,MV,4/27/22 17:23,6.8833,73.1,85.24,70,50,1.54
143,Saint-Philippe,RE,4/27/22 17:23,-21.3585,55.7679,73.22,80,71,3.96
144,Puerto Del Rosario,ES,4/27/22 17:23,28.5004,-13.8627,69.55,64,20,24.16
145,Ilulissat,GL,4/27/22 17:23,69.2167,-51.1,42.82,52,75,16.11
146,Iquique,CL,4/27/22 17:22,-20.2208,-70.1431,69.84,66,91,11.16
147,Qaanaaq,GL,4/27/22 17:23,77.484,-69.3632,20.64,71,32,4.56
148,Cabo San Lucas,MX,4/27/22 17:23,22.8909,-109.9124,87.1,32,0,3.44
149,Mount Gambier,AU,4/27/22 17:23,-37.8333,140.7667,58.91,94,100,5.75
150,Gizo,SB,4/27/22 17:23,-8.103,156.8419,82.44,76,100,8.23
151,San Patricio,US,4/27/22 17:23,28.017,-97.5169,80.69,56,16,14.43
152,Isiro,CD,4/27/22 17:23,2.7739,27.616,69.28,97,99,2.51
153,Nikolskoye,RU,4/27/22 17:23,59.7035,30.7861,37.87,67,98,4.45
154,Heihe,CN,4/27/22 17:23,50.2441,127.4902,30.78,45,16,8.41
155,Biak,ID,4/27/22 17:23,-0.9131,122.8766,76.78,85,98,2.66
156,Tukrah,LY,4/27/22 17:23,32.5341,20.5791,69.46,49,8,21.52
157,Kodiak,US,4/27/22 17:18,57.79,-152.4072,44.11,70,0,5.75
158,Sambava,MG,4/27/22 17:23,-14.2667,50.1667,76.78,81,49,0.72
159,Dabola,GN,4/27/22 17:23,10.75,-11.1167,100.96,16,7,1.86
160,Geraldton,AU,4/27/22 17:23,-28.7667,114.6,61.21,88,100,4.61
161,Brasileia,BR,4/27/22 17:23,-11.0161,-68.7481,91.85,62,75,5.75
162,Asau,RO,4/27/22 17:23,46.4333,26.4,52.95,100,100,3.11
163,Saskatoon,CA,4/27/22 17:19,52.1168,-106.6345,50.16,56,40,21.85
164,Knysna,ZA,4/27/22 17:23,-34.0363,23.0471,60.51,77,0,4.5
165,Ancud,CL,4/27/22 17:23,-41.8697,-73.8203,50.11,58,49,17.65
166,Smithers,CA,4/27/22 17:23,54.7804,-127.1743,37.72,75,40,2.3
167,Urumqi,CN,4/27/22 17:23,43.801,87.6005,54.55,54,0,6.71
168,Tijucas,BR,4/27/22 17:23,-27.2414,-48.6336,85.86,84,32,6.96
169,Port Alfred,ZA,4/27/22 17:23,-33.5906,26.891,61.18,85,1,14.92
170,Shache,CN,4/27/22 17:23,38.4167,77.2406,68.41,25,95,3.44
171,Conceicao Do Araguaia,BR,4/27/22 17:23,-8.2578,-49.2647,88.07,51,56,5.91
172,Alugan,PH,4/27/22 17:23,12.2188,125.4808,81.34,85,100,12.12
173,Leningradskiy,RU,4/27/22 17:23,69.3833,178.4167,17.31,90,100,9.6
174,Batemans Bay,AU,4/27/22 17:23,-35.7167,150.1833,64.09,95,97,3.42
175,Mehamn,NO,4/27/22 17:24,71.0357,27.8492,26.55,80,75,23.02
176,Suratgarh,IN,4/27/22 17:24,29.3167,73.9,95.47,9,0,6.6
177,Santa Maria,BR,4/27/22 17:24,-29.6842,-53.8069,90.7,49,20,13.8
178,Luderitz,NA,4/27/22 17:24,-26.6481,15.1594,66.16,55,0,3.67
179,Dundalk,US,4/27/22 17:19,39.2507,-76.5205,59.38,44,100,16.11
180,Kaseda,JP,4/27/22 17:24,31.4167,130.3167,66.94,90,100,1.95
181,Mar Del Plata,AR,4/27/22 17:24,-38.0023,-57.5575,62.87,57,0,11.99
182,Joshimath,IN,4/27/22 17:24,30.5667,79.5667,63.05,39,4,6.85
183,Port Elizabeth,ZA,4/27/22 17:21,-33.918,25.5701,65.1,88,0,9.22
184,Almaznyy,RU,4/27/22 17:24,48.0448,40.045,58.42,60,20,9.6
185,Thompson,CA,4/27/22 17:24,55.7435,-97.8558,39.36,30,0,10.36
186,Naron,ES,4/27/22 17:24,43.5167,-8.1528,59.59,85,87,2.13
187,Mayumba,GA,4/27/22 17:24,-3.432,10.6554,79.03,81,92,2.51
188,Tiznit,MA,4/27/22 17:24,29.5833,-9.5,65.16,56,0,9.98
189,Kimbe,PG,4/27/22 17:24,-5.5502,150.1429,75.99,94,62,3.02
190,Tulsipur,NP,4/27/22 17:24,28.131,82.2973,79.07,15,0,6.53
191,Merauke,ID,4/27/22 17:24,-8.4667,140.3333,78.89,87,97,7.52
192,Batagay-Alyta,RU,4/27/22 17:24,67.8006,130.4114,0.91,95,98,5.1
193,Ocampo,MX,4/27/22 17:24,21.65,-101.5,66.76,41,4,7.78
194,Kishtwar,IN,4/27/22 17:24,33.3167,75.7667,60.93,59,14,6.06
195,Lebu,CL,4/27/22 17:24,-37.6167,-73.65,54.32,71,73,13.29
196,Sidney,AU,4/27/22 17:23,-33.8679,151.2073,63.7,93,75,6.91
197,Ucluelet,CA,4/27/22 17:24,48.9329,-125.5528,48.09,80,74,1.01
198,Margate,GB,4/27/22 17:21,51.3813,1.3862,49.69,64,7,8.01
199,Opuwo,NA,4/27/22 17:24,-18.0607,13.84,76.55,32,5,2.91
200,Pinar Del Rio,CU,4/27/22 17:24,22.4175,-83.6981,86.29,39,100,11.34
201,Half Moon Bay,US,4/27/22 17:24,37.4636,-122.4286,61.14,68,0,14.97
202,Goderich,CA,4/27/22 17:24,43.7501,-81.7165,31.91,74,100,19.57
203,Byron Bay,AU,4/27/22 17:24,-28.65,153.6167,62.49,86,65,3.85
204,Richards Bay,ZA,4/27/22 17:24,-28.783,32.0377,64.96,81,45,3.06
205,Porto Santo,PT,4/27/22 17:24,33.072,-16.3415,66.58,59,20,11.5
206,Pisco,PE,4/27/22 17:24,-13.7,-76.2167,68.02,88,75,10.36
207,Copiapo,CL,4/27/22 17:24,-27.3667,-70.3333,65.89,33,0,6.26
208,Tabora,TZ,4/27/22 17:24,-5.0167,32.8,69.24,80,98,4
209,Batticaloa,LK,4/27/22 17:24,7.7102,81.6924,83.14,76,4,7.96
210,Muzhi,RU,4/27/22 17:24,65.3667,64.6667,25.52,75,47,8.16
211,Gornyye Klyuchi,RU,4/27/22 17:24,45.25,133.5,36.99,57,0,3.74
212,Laguna,US,4/27/22 17:24,38.421,-121.4238,64.69,56,0,8.05
213,Gazli,UZ,4/27/22 17:24,40.1333,63.45,78.01,19,99,22.41
214,Naryan-Mar,RU,4/27/22 17:24,67.6713,53.087,18.91,82,81,14.58
215,Flinders,AU,4/27/22 17:24,-34.5833,150.8552,64.18,93,96,5.99
216,Mount Pleasant,US,4/27/22 17:19,32.7941,-79.8626,76.17,39,75,10.36
217,Filadelfia,US,4/27/22 17:24,39.9523,-75.1638,57.27,36,75,21.85
218,Linjiang,CN,4/27/22 17:24,41.8069,126.9078,37.72,45,60,1.59
219,Le Port,RE,4/27/22 17:24,-20.9373,55.2919,74.25,66,13,5.14
220,Jijiga,ET,4/27/22 17:24,9.35,42.8,67.91,71,97,8.32
221,Port Blair,IN,4/27/22 17:24,11.6667,92.75,82.44,89,40,2.3
222,Takhtamygda,RU,4/27/22 17:25,54.1,123.5667,25.47,54,23,0.78
223,Balgarovo,BG,4/27/22 17:25,42.6214,27.3046,56.89,82,5,8.05
224,Biu,NG,4/27/22 17:25,10.6129,12.1946,85.33,36,96,4.03
225,Cedar City,US,4/27/22 17:21,37.6775,-113.0619,65.39,15,0,20.71
226,Provideniya,RU,4/27/22 17:25,64.3833,-173.3,25.99,91,57,6.62
227,Teguldet,RU,4/27/22 17:25,57.3064,88.1667,37.74,90,96,4.47
228,Waingapu,ID,4/27/22 17:25,-9.6567,120.2641,75.36,82,96,3.94
229,Mirabad,AF,4/27/22 17:25,30.4362,61.8383,92.62,11,59,8.14
230,Basoko,CD,4/27/22 17:25,1.2391,23.616,76.08,77,62,4.09
231,Shwebo,MM,4/27/22 17:25,22.5667,95.7,90.46,18,0,6.13
232,Bengkulu,ID,4/27/22 17:25,-3.8004,102.2655,76.3,93,100,3.65
233,Lynn Haven,US,4/27/22 17:25,30.2455,-85.6483,80.01,45,0,5.01
234,Zaraza,VE,4/27/22 17:25,9.3503,-65.3245,85.87,58,100,5.99
235,Manta,EC,4/27/22 17:25,-0.95,-80.7333,82.18,78,40,10.36
236,Kununurra,AU,4/27/22 17:25,-15.7667,128.7333,73.38,83,40,0
237,Guerrero Negro,MX,4/27/22 17:25,27.9769,-114.0611,67.53,59,1,12.86
238,Sabha,LY,4/27/22 17:25,27.0377,14.4283,96.21,4,77,8.14
239,Mae Sai,TH,4/27/22 17:25,20.4335,99.8762,80.65,52,15,1.61
240,Hithadhoo,MV,4/27/22 17:25,-0.6,73.0833,83.77,75,100,6.15
241,Plettenberg Bay,ZA,4/27/22 17:25,-34.0527,23.3716,60.91,79,0,2.93
242,Kloulklubed,PW,4/27/22 17:25,7.0419,134.2556,73.9,80,100,16.17
243,Novopokrovka,UA,4/27/22 17:25,49.8425,36.5477,52.57,70,83,5.26
244,Gobabis,NA,4/27/22 17:25,-22.45,18.9667,72.88,26,14,10.49
245,La Tuque,CA,4/27/22 17:25,47.4334,-72.7824,41.25,60,100,13.8
246,Zhezkazgan,KZ,4/27/22 17:25,47.8043,67.7144,60.78,39,0,4.47
247,Adre,TD,4/27/22 17:25,13.4667,22.2,87.85,30,97,13.67
248,Pemangkat,ID,4/27/22 17:25,1.1667,108.9667,79.12,83,70,3.83
249,Bairiki,KI,4/27/22 17:25,1.3292,172.9752,80.6,89,40,12.66
250,Los Llanos De Aridane,ES,4/27/22 17:25,28.6585,-17.9182,67.75,77,20,14.97
251,Torbay,CA,4/27/22 17:25,47.6666,-52.7314,48.76,83,75,8.05
252,Southbridge,US,4/27/22 17:24,42.0751,-72.0334,56.39,59,76,8.99
253,Victoria,HK,4/27/22 17:21,22.2855,114.1577,84.18,86,5,10
254,Sligo,IE,4/27/22 17:25,54.2697,-8.4694,58.68,51,0,5.75
255,Laela,TZ,4/27/22 17:25,-8.5667,32.05,62.26,94,99,3.65
256,Paamiut,GL,4/27/22 17:25,61.994,-49.6678,34.18,97,100,26.02
257,Forestville,US,4/27/22 17:23,38.8451,-76.875,60.37,39,40,23.02
258,Inirida,CO,4/27/22 17:25,3.8653,-67.9239,84.33,67,99,2.17
259,Coihaique,CL,4/27/22 17:22,-45.5752,-72.0662,41.61,60,40,5.75
260,Rosetown,CA,4/27/22 17:26,51.5501,-108.0014,51.78,58,45,19.57
261,Auki,SB,4/27/22 17:26,-8.7676,160.7034,77.2,86,87,3.74
262,Bud,US,4/27/22 17:26,39.447,-86.1758,60.67,56,16,6.44
263,Bathsheba,BB,4/27/22 17:26,13.2167,-59.5167,77.61,94,75,12.66
264,Hambantota,LK,4/27/22 17:26,6.1241,81.1185,83.03,76,19,3.33
265,Touros,BR,4/27/22 17:26,-5.1989,-35.4608,85.32,66,99,13.2
266,Coquimbo,CL,4/27/22 17:27,-29.9533,-71.3436,67.73,63,20,12.66
267,Nova Prata,BR,4/27/22 17:27,-28.7839,-51.61,87.28,51,2,8.08
268,Nagato,JP,4/27/22 17:27,34.3833,131.2,56.19,80,81,9.46
269,Nhulunbuy,AU,4/27/22 17:25,-12.2333,136.7667,77.61,94,64,0
270,Vardo,NO,4/27/22 17:27,70.3705,31.1107,22.98,93,99,25.32
271,Pinheiro,BR,4/27/22 17:27,-2.5214,-45.0825,82.71,83,93,4.32
272,Kaspiyskiy,RU,4/27/22 17:27,45.3929,47.3707,58.62,75,31,10.42
273,Butaritari,KI,4/27/22 17:27,3.0707,172.7902,81.3,81,13,17.85
274,Sola,VU,4/27/22 17:27,-13.8833,167.55,80.56,78,97,13.82
275,Dikson,RU,4/27/22 17:27,73.5069,80.5464,28.09,92,100,33.11
276,Yarada,IN,4/27/22 17:27,17.65,83.2667,86.32,79,40,5.75
277,Skegness,GB,4/27/22 17:27,53.1436,0.3363,49.05,79,100,13.15
278,Kahului,US,4/27/22 17:26,20.8947,-156.47,74.84,83,40,16.11
279,Port Hedland,AU,4/27/22 17:27,-20.3167,118.5667,77.05,78,40,5.75
280,Labytnangi,RU,4/27/22 17:27,66.6572,66.4183,16.02,86,4,7.65
281,Saint-Joseph,RE,4/27/22 17:27,-21.3667,55.6167,72.21,79,58,2.08
282,Riyadh,SA,4/27/22 17:26,24.6877,46.7219,87.94,24,49,22.39
283,Tasiilaq,GL,4/27/22 17:27,65.6145,-37.6368,37.56,77,100,5.3
284,Shenjiamen,CN,4/27/22 17:27,29.9576,122.298,56.28,83,37,6.2
285,Burnie,AU,4/27/22 17:27,-41.0667,145.9167,61.07,91,99,12.84
286,Yeppoon,AU,4/27/22 17:27,-23.1333,150.7333,67.78,85,20,13
287,Quatre Cocos,MU,4/27/22 17:27,-20.2078,57.7625,74.08,81,71,6.17
288,Zhuhai,CN,4/27/22 17:27,22.2769,113.5678,83.86,89,40,10.36
289,Ust-Kuyga,RU,4/27/22 17:27,70.0167,135.6,-4.88,100,100,4.56
290,Pasighat,IN,4/27/22 17:27,28.0667,95.3333,70.36,76,50,5.06
291,Ahipara,NZ,4/27/22 17:27,-35.1667,173.1667,61.39,65,71,4.79
292,Korla,CN,4/27/22 17:27,41.7597,86.1469,66.15,28,100,4.38
293,Seybaplaya,MX,4/27/22 17:27,19.65,-90.6667,87.26,57,99,4
294,Torres,BR,4/27/22 17:27,-29.3353,-49.7269,92.82,59,1,6.91
295,Cuauhtemoc,MX,4/27/22 17:24,28.4167,-106.8667,70.48,26,2,8.3
296,Warmbad,NA,4/27/22 17:27,-28.45,18.7333,76.12,22,11,17.47
297,Solnechnyy,RU,4/27/22 17:27,50.7214,136.6319,27.57,75,100,10.6
298,Aklavik,CA,4/27/22 17:27,68.2191,-135.0107,20.37,90,100,9.1
299,Grindavik,IS,4/27/22 17:27,63.8424,-22.4338,46.87,71,75,5.75
300,Miyako,JP,4/27/22 17:23,39.6367,141.9525,42.78,68,80,7.85
301,Farah,AF,4/27/22 17:27,32.5,62.5,84.36,13,99,4.21
302,Berdigestyakh,RU,4/27/22 17:27,62.0989,126.6992,14.43,97,73,4.18
303,Dudinka,RU,4/27/22 17:27,69.4058,86.1778,29.62,95,100,28.63
304,Carnot,CF,4/27/22 17:27,4.9409,15.8665,76.01,77,93,2.8
305,Haines Junction,CA,4/27/22 17:27,60.7522,-137.5108,39.15,75,77,1.14
306,Aba,NG,4/27/22 17:27,5.1066,7.3667,76.55,89,100,7.63
307,Nuuk,GL,4/27/22 17:23,64.1835,-51.7216,36.21,93,100,35.68
308,Vicuna,CL,4/27/22 17:27,-30.0319,-70.7081,74.77,32,0,7.47
309,Valley,US,4/27/22 17:27,45.1277,-116.1262,36.21,74,100,2.86
310,Alofi,NU,4/27/22 17:27,-19.0595,-169.9187,73.29,94,87,8.05
311,Rapina,EE,4/27/22 17:27,58.0981,27.4636,35.94,46,28,5.68
312,Linhares,BR,4/27/22 17:27,-19.3911,-40.0722,88.3,36,8,8.72
313,Clarence Town,AU,4/27/22 17:28,-32.5833,151.7833,67.95,98,100,0.94
314,Semnan,IR,4/27/22 17:28,35.5729,53.3971,66.04,45,0,2.3
315,Bentiu,SS,4/27/22 17:28,9.2333,29.8333,99.54,16,57,3.51
316,Turinskaya Sloboda,RU,4/27/22 17:28,57.6232,64.3858,59.74,71,95,9.46
317,Shyroke,UA,4/27/22 17:28,47.6917,33.2571,58.42,52,5,6.53
318,Airai,TL,4/27/22 17:28,-8.9266,125.4092,60.4,94,58,0.69
319,Faanui,PF,4/27/22 17:28,-16.4833,-151.75,81.68,74,5,20.18
320,Guangyuan,CN,4/27/22 17:28,32.442,105.823,53.33,93,100,10.11
321,Manutuke,NZ,4/27/22 17:28,-38.6833,177.9167,53.83,86,91,6.51
322,Alakurtti,RU,4/27/22 17:28,66.9672,30.3491,28.31,66,100,9.73
323,Rio Gallegos,AR,4/27/22 17:28,-51.6226,-69.2181,44.65,65,40,21.85
324,Meulaboh,ID,4/27/22 17:28,4.1363,96.1285,78.82,87,98,2.68
325,Hami,CN,4/27/22 17:28,42.8,93.45,61.12,26,5,4.36
326,Kurchum,KZ,4/27/22 17:28,48.5722,83.6542,51.17,43,59,4.65
327,Bemidji,US,4/27/22 17:28,47.4736,-94.8803,42.89,34,0,11.5
328,Amarpur,IN,4/27/22 17:28,25.0333,86.9,87.33,26,0,8.99
329,Emerald,AU,4/27/22 17:28,-23.5333,148.1667,68.14,94,75,8.05
330,Masallatah,LY,4/27/22 17:28,32.6167,14,65.55,62,71,19.71
331,Bitung,ID,4/27/22 17:28,1.4451,125.1824,77.85,92,100,4.05
332,Lazaro Cardenas,MX,4/27/22 17:28,17.9583,-102.2,87.35,37,3,7.4
333,Kalmar,SE,4/27/22 17:28,56.6616,16.3616,44.15,69,0,8.05
334,Asfi,MA,4/27/22 17:28,32.2994,-9.2372,65.21,66,14,21.3
335,Karachi,PK,4/27/22 17:23,24.9056,67.0822,85.82,54,20,11.5
336,Saldanha,ZA,4/27/22 17:28,-33.0117,17.9442,64.45,76,8,13.82
337,Tura,IN,4/27/22 17:28,25.5198,90.2201,74.34,76,0,6.98
338,Ribeira Grande,PT,4/27/22 17:28,38.5167,-28.7,66.6,88,40,17.27
339,High Rock,BS,4/27/22 17:28,26.6208,-78.2833,78.82,65,49,4.68
340,Nemuro,JP,4/27/22 17:28,43.3236,145.575,42.37,54,2,23.06
341,Podor,MR,4/27/22 17:28,16.6527,-14.9587,102.15,17,0,2.3
342,Una,IN,4/27/22 17:28,20.8167,71.0333,88.93,33,2,8.75
343,Arman,RU,4/27/22 17:28,59.7,150.1667,21.69,69,100,15.23
344,Jibuti,DJ,4/27/22 17:28,11.5,42.5,80.31,67,36,14.18
345,Kutum,SD,4/27/22 17:28,14.2,24.6667,91.26,15,77,11.16
346,Leirvik,NO,4/27/22 17:28,59.7798,5.5005,49.62,61,0,23.02
347,Eureka,US,4/27/22 17:27,40.8021,-124.1637,55.13,76,32,5.99
348,Orocue,CO,4/27/22 17:28,4.7912,-71.3354,80.33,77,100,6.35
349,Sitka,US,4/27/22 17:28,57.0531,-135.33,44.49,81,75,0
350,Butembo,CD,4/27/22 17:28,0.15,29.2833,58.89,97,94,2.84
351,Cidreira,BR,4/27/22 17:28,-30.1811,-50.2056,84.97,57,0,6.82
352,Ciudad Bolivar,VE,4/27/22 17:28,8.1222,-63.5497,79.72,73,100,4.68
353,Port Augusta,AU,4/27/22 17:28,-32.5,137.7667,65.66,73,100,7.38
354,San Pedro,PH,4/27/22 17:28,14.35,121.0167,83.43,78,40,9.15
355,Senneterre,CA,4/27/22 17:28,48.3835,-77.2328,29.17,75,100,13.06
356,Barcelos,PT,4/27/22 17:27,41.5388,-8.6151,63.91,69,30,8.72
357,Zyryanka,RU,4/27/22 17:28,65.75,150.85,16.84,95,100,9.86
358,Orje,NO,4/27/22 17:28,59.4802,11.6602,50.85,35,99,4.65
359,Nizwa,OM,4/27/22 17:28,22.9333,57.5333,91,21,67,4.14
360,Kantemirovka,RU,4/27/22 17:28,49.7089,39.8592,52.92,77,57,10.2
361,Breves,BR,4/27/22 17:29,-1.6822,-50.4803,82.26,84,96,4.07
362,Lakeway,US,4/27/22 17:29,30.3638,-97.9796,77.52,64,100,7
363,Labuhan,ID,4/27/22 17:29,-6.8844,112.2051,79.86,83,96,1.79
364,Tromso,NO,4/27/22 17:29,69.6496,18.957,30.22,69,100,17.27
365,Halifax,CA,4/27/22 17:27,44.6453,-63.5724,48.09,90,100,13.8
366,Salalah,OM,4/27/22 17:29,17.0151,54.0924,84.29,74,0,4.61
367,Chicama,PE,4/27/22 17:29,-7.8447,-79.1469,64.94,69,90,7.81
368,Ust-Maya,RU,4/27/22 17:29,60.4167,134.5333,18.09,96,34,3.13
369,Kindu,CD,4/27/22 17:29,-2.95,25.95,71.94,86,97,3.4
370,Kyra,RU,4/27/22 17:29,49.5776,111.9753,32.49,48,48,3.58
371,Clyde River,CA,4/27/22 17:29,70.4692,-68.5914,1.63,85,75,10.36
372,Jumla,NP,4/27/22 17:29,29.2747,82.1838,54.5,46,9,4.63
373,Dubbo,AU,4/27/22 17:29,-32.25,148.6167,60.93,100,75,8.05
374,Adrar,MR,4/27/22 17:29,20.5022,-10.0711,88.12,10,0,10.78
375,Lumphat,KH,4/27/22 17:29,13.4878,106.9816,79.72,77,24,2.86
376,Svetlogorsk,BY,4/27/22 17:29,52.6333,29.7333,46.9,68,80,5.77
377,Talnakh,RU,4/27/22 17:29,69.4865,88.3972,29.21,85,100,24.87
378,Zambezi,ZM,4/27/22 17:29,-13.5432,23.1047,68.61,67,8,5.5
379,Constitucion,CL,4/27/22 17:29,-35.3333,-72.4167,57.07,73,54,8.88
380,Tatawin,TN,4/27/22 17:29,32.9297,10.4518,68.11,50,100,23.49
381,Ternate,ID,4/27/22 17:29,0.8,127.4,79.75,82,100,3.58
382,Jati,PK,4/27/22 17:29,24.3539,68.2671,85.62,55,0,12.77
383,Kieta,PG,4/27/22 17:29,-6.2167,155.6333,79.38,85,67,0.89
384,Motygino,RU,4/27/22 17:29,58.1831,94.7592,25.63,96,45,2.15
385,Tabuk,PH,4/27/22 17:29,17.4189,121.4443,74.88,84,53,4.7
386,Beringovskiy,RU,4/27/22 17:29,63.05,179.3167,31.1,99,100,4.72
387,Winslow,US,4/27/22 17:26,35.0242,-110.6974,73.58,9,0,20.71
388,Snezhnogorsk,RU,4/27/22 17:29,69.1933,33.2531,29.98,64,100,21.56
389,Cubara,CO,4/27/22 17:29,7.0008,-72.1085,74.64,94,100,0.49
390,Canapi,BR,4/27/22 17:29,-9.1174,-37.6012,85.06,53,90,9.73
391,Komsomolskiy,UZ,4/27/22 17:29,40.4272,71.7189,63.32,77,0,4.61
392,Christchurch,NZ,4/27/22 17:29,-43.5333,172.6333,52.95,87,100,2.3
393,Dera Bugti,PK,4/27/22 17:29,29.0307,69.151,89.76,12,0,2.13
394,Bayangol,RU,4/27/22 17:29,50.6977,103.4656,28,73,36,3.91
395,Kunda,IN,4/27/22 17:29,25.7167,81.5167,93.61,10,0,6.82
396,Owosso,US,4/27/22 17:29,42.9978,-84.1766,37.8,69,100,10.36
397,Havelock,US,4/27/22 17:29,34.8791,-76.9013,69.94,56,20,6.91
398,Kurilsk,RU,4/27/22 17:29,45.2333,147.8833,36.9,82,74,27.92
399,Ammon,US,4/27/22 17:29,43.4696,-111.9666,54.1,58,75,11.5
400,Yavas,RU,4/27/22 17:29,54.4159,42.8491,45.12,90,94,9.93
401,Praia Da Vitoria,PT,4/27/22 17:29,38.7333,-27.0667,68.25,88,75,22.12
402,Farias Brito,BR,4/27/22 17:29,-6.9306,-39.5656,88.48,31,44,6.64
403,Luang Prabang,LA,4/27/22 17:30,19.8856,102.1347,75.27,84,72,1.48
404,Uniontown,US,4/27/22 17:30,39.9001,-79.7164,52.14,31,97,5.99
405,Alice Springs,AU,4/27/22 17:30,-23.7,133.8833,71.15,40,12,5.75
406,Along,IN,4/27/22 17:30,28.1667,94.7667,66.51,78,68,2.46
407,Comodoro Rivadavia,AR,4/27/22 17:31,-45.8667,-67.5,44.46,49,20,11.5
408,Bulembu,SZ,4/27/22 17:31,-25.9667,31.1333,52.79,79,33,1.5
409,Pathein,MM,4/27/22 17:31,16.7833,94.7333,80.85,82,6,7.25
410,Necochea,AR,4/27/22 17:30,-38.5473,-58.7368,60.71,37,0,10.96
411,Bosaso,SO,4/27/22 17:31,11.2842,49.1816,83.46,72,9,3.09
412,San Andres,CO,4/27/22 17:31,12.5847,-81.7006,84.22,74,40,16.11
413,Kamariotissa,GR,4/27/22 17:31,40.4833,25.4667,62.69,74,0,8.21
414,Weligama,LK,4/27/22 17:31,5.9667,80.4167,80.73,83,22,3.42
415,Ishigaki,JP,4/27/22 17:31,24.3448,124.1572,78.93,94,75,5.75
416,Aksarka,RU,4/27/22 17:31,66.5606,67.7975,15.46,88,7,4.68
417,Chajul,GT,4/27/22 17:31,15.4853,-91.0342,75.24,49,48,6.76
418,Kruisfontein,ZA,4/27/22 17:31,-34.0033,24.7314,62.89,76,0,5.93
419,Xichang,CN,4/27/22 17:31,27.8964,102.2634,62.62,56,2,2.57
420,Alta Floresta,BR,4/27/22 17:31,-9.8756,-56.0861,85.26,63,58,4.16
421,Enger,DE,4/27/22 17:31,52.1333,8.5667,60.1,59,52,4
422,Xiongyue,CN,4/27/22 17:31,40.1774,122.1228,49.24,48,82,2.1
423,Yangambi,CD,4/27/22 17:31,0.8102,24.4336,70.9,95,87,1.1
424,Puerto Escondido,MX,4/27/22 17:31,15.85,-97.0667,89.1,50,5,9.13
425,Asyut,EG,4/27/22 17:31,27.181,31.1837,93.38,11,0,13.27
426,North Bend,US,4/27/22 17:30,43.4065,-124.2243,54.25,83,0,4.61
427,Alekseyevsk,RU,4/27/22 17:31,57.8406,108.3492,29.1,88,96,9.06
428,Umm Lajj,SA,4/27/22 17:31,25.0213,37.2685,82.47,55,0,5.95
429,Ayan,RU,4/27/22 17:31,56.45,138.1667,28.98,79,100,10.38
430,Vostok,RU,4/27/22 17:31,46.4856,135.8833,27.09,82,57,9.1
431,Edea,CM,4/27/22 17:31,3.8,10.1333,71.92,98,93,1.77
432,Torrington,US,4/27/22 17:26,41.8007,-73.1212,54.79,59,82,10
433,Takoradi,GH,4/27/22 17:31,4.8845,-1.7554,81.64,81,57,13
434,Sorong,ID,4/27/22 17:31,-0.8833,131.25,77.9,90,100,3.4
435,Nadvoitsy,RU,4/27/22 17:31,63.8667,34.3167,23.23,80,99,0.83
436,Turmalina,BR,4/27/22 17:31,-17.2856,-42.73,84.63,34,5,8.84
437,Tomatlan,MX,4/27/22 17:31,19.9333,-105.25,91.69,38,1,9.26
438,Mahad,IN,4/27/22 17:31,18.0833,73.4167,86.81,44,17,0.31
439,Boddam,GB,4/27/22 17:31,57.4667,-1.7833,50.43,68,37,7.7
440,Gravdal,NO,4/27/22 17:31,68.1214,13.5031,37.29,56,40,5.75
441,Lavrentiya,RU,4/27/22 17:31,65.5833,-171,14.14,95,59,5.01
442,Bilma,NE,4/27/22 17:31,18.6853,12.9164,95.02,7,4,8.88
443,Dossor,KZ,4/27/22 17:31,47.5272,52.9811,71.49,30,97,10.36
444,Slave Lake,CA,4/27/22 17:31,55.2834,-114.769,33.78,100,100,4.61
445,Oussouye,SN,4/27/22 17:31,12.485,-16.5469,98.78,46,30,13.13
446,Dunedin,NZ,4/27/22 17:31,-45.8742,170.5036,52.81,72,3,1.99
447,Tuatapere,NZ,4/27/22 17:31,-46.1333,167.6833,44.91,92,7,3.51
448,Olhao,PT,4/27/22 17:31,37.0286,-7.8411,70.09,76,20,16.11
449,Hamilton,US,4/27/22 17:31,39.1834,-84.5333,58.98,49,0,7
450,Kirovskiy,RU,4/27/22 17:31,45.0917,133.5136,36.1,60,24,5.08
451,Chapais,CA,4/27/22 17:31,49.7834,-74.8492,28.18,85,100,13.69
452,Lae,PG,4/27/22 17:31,-6.7221,146.9847,75.92,89,99,6.06
453,Catamarca,AR,4/27/22 17:31,-28.4696,-65.7852,78.58,41,27,8.99
454,Qaqortoq,GL,4/27/22 17:32,60.7167,-46.0333,41.58,73,100,1.03
455,Dwarka,IN,4/27/22 17:32,22.2394,68.9678,83.17,74,0,9.73
456,Rio Grande,BR,4/27/22 17:28,-32.035,-52.0986,66.31,79,75,11.77
457,Khandagayty,RU,4/27/22 17:32,50.7333,92.05,35.2,65,70,8.48
458,Naze,JP,4/27/22 17:32,28.3667,129.4833,70.72,87,100,9.66
459,Luxor,EG,4/27/22 17:32,25.6989,32.6421,91.45,17,0,4.61
460,Aykhal,RU,4/27/22 17:32,66,111.5,8.6,95,99,4.43
461,Matadi,CD,4/27/22 17:32,-5.8167,13.45,80.46,82,90,1.99
462,La Asuncion,VE,4/27/22 17:32,11.0333,-63.8628,80.33,89,100,11.5
463,Tombouctou,ML,4/27/22 17:32,20,-3,87.69,8,0,7.99
464,Bathurst,AU,4/27/22 17:32,-33.4166,149.5806,58.82,99,100,2.13
465,Were Ilu,ET,4/27/22 17:32,10.6,39.4333,55.13,75,97,6.4
466,Maniitsoq,GL,4/27/22 17:32,65.4167,-52.9,32.54,98,100,30.53
467,Okha,RU,4/27/22 17:32,53.5739,142.9478,25.66,91,100,32.28
468,Pangnirtung,CA,4/27/22 17:32,66.1451,-65.7125,6.8,66,20,4.61
469,Ust-Kulom,RU,4/27/22 17:32,61.6864,53.6902,39.65,94,88,2.68
470,Mattru,SL,4/27/22 17:32,7.6244,-11.8332,85.01,66,97,6.8
471,Tazovskiy,RU,4/27/22 17:32,67.4667,78.7,33.67,92,100,13.58
472,Ambatofinandrahana,MG,4/27/22 17:32,-20.55,46.8,59.34,96,98,3.49
473,Huarmey,PE,4/27/22 17:32,-10.0681,-78.1522,71.76,77,90,8.63
474,Melville,US,4/27/22 17:32,40.7934,-73.4151,57.67,39,75,16.11
475,Doka,SD,4/27/22 17:32,13.5167,35.7667,95.25,8,94,12.35
476,Zemio,CF,4/27/22 17:32,5.0314,25.1361,72.68,87,85,4.36
477,Ambunti,PG,4/27/22 17:32,-4.2365,142.8448,75.52,92,100,1.25
478,Acajutla,SV,4/27/22 17:32,13.5928,-89.8275,89.47,55,61,11.61
479,Coahuayana,MX,4/27/22 17:32,18.7333,-103.6833,91.36,36,0,7.47
480,Fukue,JP,4/27/22 17:32,32.6881,128.8419,61.86,74,87,22.19
481,Manadhoo,MV,4/27/22 17:32,5.7667,73.3833,84.56,72,32,1.43
482,Shimoda,JP,4/27/22 17:32,34.6667,138.95,64.11,82,100,20.49
483,Takikawa,JP,4/27/22 17:32,43.5528,141.9064,42.73,57,5,19.93
484,Trento,IT,4/27/22 17:32,46.0679,11.1211,64.15,59,0,3.44
485,Bambanglipuro,ID,4/27/22 17:32,-7.95,110.2833,76.87,90,100,4.25
486,Husavik,IS,4/27/22 17:32,66.0449,-17.3389,41.16,73,98,3.13
487,Kathmandu,NP,4/27/22 17:30,27.7167,85.3167,70.02,60,20,4.61
488,Norman Wells,CA,4/27/22 17:32,65.282,-126.8329,30.24,74,75,9.22
489,Ostersund,SE,4/27/22 17:32,63.1792,14.6357,36.61,64,0,10.36
490,Tezu,IN,4/27/22 17:32,27.9167,96.1667,69.96,67,37,4.36
491,Kasempa,ZM,4/27/22 17:32,-13.4584,25.8338,63.63,77,22,5.88
492,Usinsk,RU,4/27/22 17:29,65.9939,57.5281,25.84,72,100,11.65
493,Toppenish,US,4/27/22 17:32,46.3774,-120.3087,55.02,49,99,1.48
494,Avera,US,4/27/22 17:32,33.194,-82.5271,72.91,31,0,7.27
495,Vaitape,PF,4/27/22 17:32,-16.5167,-151.75,81.64,73,6,21.36
496,Trofors,NO,4/27/22 17:32,65.5333,13.4063,35.47,90,93,4.54
497,Ambovombe,MG,4/27/22 17:32,-25.1667,46.0833,69.85,68,71,13.73
498,Atar,MR,4/27/22 17:32,20.5169,-13.0499,90.36,10,0,11.74
499,Mobaye,CF,4/27/22 17:32,4.319,21.1786,71.64,84,81,2.3
500,Gualeguay,AR,4/27/22 17:32,-33.1416,-59.3097,69.39,37,0,10.38
501,Texistepeque,SV,4/27/22 17:32,14.1333,-89.5,90.97,45,20,2.3
502,Arrecife,ES,4/27/22 17:30,28.963,-13.5477,71.58,53,20,25.32
503,Kayerkan,RU,4/27/22 17:33,69.3497,87.7602,28.53,100,100,25.41
504,Port Hardy,CA,4/27/22 17:33,50.6996,-127.4199,44.6,87,75,6.91
505,Quba,AZ,4/27/22 17:33,41.3626,48.5152,57.45,79,7,4.97
506,Keita,NE,4/27/22 17:33,14.7551,5.7749,96.26,10,2,8.21
507,Imeni Poliny Osipenko,RU,4/27/22 17:33,52.4201,136.4853,23.5,90,100,4.43
508,Manokwari,ID,4/27/22 17:33,-0.8667,134.0833,78.58,78,98,3.29
509,Mahesana,IN,4/27/22 17:33,23.6,72.4,86.77,21,0,7.25
510,Otane,NZ,4/27/22 17:33,-39.8833,176.6333,51.01,89,60,2.95
511,Tulu Bolo,ET,4/27/22 17:33,8.6667,38.2167,65.43,58,67,3.67
512,Acapulco,MX,4/27/22 17:33,16.8634,-99.8901,85.82,66,0,12.66
513,Akyab,MM,4/27/22 17:33,20.15,92.9,81.39,84,22,5.26
514,San Cristobal,VE,4/27/22 17:33,7.7669,-72.225,75.38,66,96,5.68
515,Seoul,KR,4/27/22 17:31,37.5683,126.9778,51.37,66,0,2.3
516,Sulya,IN,4/27/22 17:33,12.5667,75.3833,80.55,91,21,0.38
517,Champerico,GT,4/27/22 17:33,14.3,-91.9167,91.94,63,3,8.84
518,Acobamba,PE,4/27/22 17:33,-11.3525,-75.6594,67.78,48,72,11.36
519,Floro,NO,4/27/22 17:33,61.5996,5.0328,42.87,61,75,9.22
520,Kysyl-Syr,RU,4/27/22 17:33,63.8986,122.7617,10.67,95,20,4.81
521,Kargil,IN,4/27/22 17:33,34.5667,76.1,40.39,53,1,5.53
522,Henties Bay,NA,4/27/22 17:33,-22.116,14.2845,63.99,72,18,8.61
523,Zhanaozen,KZ,4/27/22 17:33,43.3,52.8,71.89,25,84,11.83
524,Tucupita,VE,4/27/22 17:33,9.0622,-62.051,81.37,72,100,2.19
525,Atlantic City,US,4/27/22 17:33,39.3643,-74.4229,60.19,34,20,18.41
526,Kotido,UG,4/27/22 17:33,2.9806,34.1331,73.08,73,100,7.31
527,Sakaraha,MG,4/27/22 17:33,-22.9,44.5333,66.83,70,98,13.2
528,Raudeberg,NO,4/27/22 17:33,61.9875,5.1352,41.67,78,100,11.21
529,Codrington,AU,4/27/22 17:33,-38.2667,141.9667,60.62,86,100,8.28
530,Severn,US,4/27/22 17:31,39.1371,-76.6983,60.37,44,100,16.11
531,Tonj,SS,4/27/22 17:33,7.2737,28.6822,89.53,31,100,4.18
532,Ryotsu,JP,4/27/22 17:33,38.0833,138.4333,46.65,66,33,1.54
533,North Adams,US,4/27/22 17:33,42.7009,-73.1087,50.52,57,100,17.27
534,Lahat,ID,4/27/22 17:33,-3.8,103.5333,73.36,98,100,1.68
535,Bardiyah,LY,4/27/22 17:33,31.7561,25.0865,67.21,61,2,6.02
536,Safford,US,4/27/22 17:33,32.834,-109.7076,83.12,16,0,5.75
537,Kisangani,CD,4/27/22 17:33,0.5167,25.2,74.52,85,100,1.88
538,Wangaratta,AU,4/27/22 17:33,-36.3667,146.3333,61.47,94,100,4.61
539,Penzance,GB,4/27/22 17:33,50.1186,-5.5371,52.48,66,40,16.11
540,Khandyga,RU,4/27/22 17:33,62.6667,135.6,4.64,97,28,1.1
541,Mariental,NA,4/27/22 17:33,-24.6333,17.9667,76.05,26,34,4.81
542,Vestmannaeyjar,IS,4/27/22 17:33,63.4427,-20.2734,47.39,87,75,5.75
543,Goleniow,PL,4/27/22 17:33,53.5639,14.8285,55.74,47,0,12.66
544,Acara,BR,4/27/22 17:34,-1.9608,-48.1967,83.1,88,63,2.15
545,Fare,PF,4/27/22 17:34,-16.7,-151.0167,81.27,74,4,21.39
546,Nola,IT,4/27/22 17:34,40.922,14.5329,68.36,59,16,3
547,Port Keats,AU,4/27/22 17:34,-14.25,129.55,80.42,79,46,2.26
548,Ngunguru,NZ,4/27/22 17:34,-35.6167,174.5,63.34,78,63,16.2
549,Jalu,LY,4/27/22 17:34,29.0331,21.5482,87.24,10,100,15.14
550,Kawalu,ID,4/27/22 17:35,-7.3817,108.2082,74.03,95,100,2.8
551,Yanam,IN,4/27/22 17:35,16.7333,82.2167,78.64,91,17,3.13
552,Yulara,AU,4/27/22 17:35,-25.2406,130.9889,73.24,35,100,6.91
553,Bethanien,NA,4/27/22 17:35,-26.502,17.1583,74.16,25,43,9.64
554,Shiyan,CN,4/27/22 17:35,32.6475,110.7781,63.46,70,100,1.72
555,Huambo,AO,4/27/22 17:35,-12.7761,15.7392,66.07,55,83,2.53
556,San Vicente,AR,4/27/22 17:35,-26.6167,-54.1333,87.24,43,28,8.21
557,Orikum,AL,4/27/22 17:35,40.3253,19.4714,62.26,70,0,11.72
558,Mola Di Bari,IT,4/27/22 17:35,41.0609,17.0873,68.32,84,1,7.45
559,Iquitos,PE,4/27/22 17:35,-3.7481,-73.2472,87.84,66,75,5.75
560,Songea,TZ,4/27/22 17:35,-10.6833,35.65,62.78,98,85,3.24
561,Alcudia,ES,4/27/22 17:35,39.8532,3.1214,71.2,67,100,5.55
562,Panguipulli,CL,4/27/22 17:35,-39.6333,-72.3333,44.94,93,94,7.2
563,Sao Joao Da Barra,BR,4/27/22 17:35,-21.6403,-41.0511,87.89,73,1,12.08
564,Kodinsk,RU,4/27/22 17:35,58.6881,99.1844,23.13,96,31,1.36
565,Arjona,CO,4/27/22 17:35,10.2544,-75.3439,85.26,62,100,5.93